[
{"name":"Nairobi","lat":"-1.2864","lon":"36.8172"},
{"name":"Meru","lat":"0.05","lon":"37.65"},
{"name":"Mombasa","lat":"-4.05","lon":"39.6667"},
{"name":"Kisumu","lat":"-0.0833","lon":"34.7667"},
{"name":"Kikuyu","lat":"-1.25","lon":"36.6667"},
{"name":"Nakuru","lat":"-0.3","lon":"36.0667"},
{"name":"Eldoret","lat":"0.5167","lon":"35.2833"},
{"name":"Habaswein","lat":"1.01","lon":"39.49"},
{"name":"Ongata Rongai","lat":"-1.4","lon":"36.77"},
{"name":"Molo","lat":"-0.25","lon":"35.7333"},
{"name":"Kitenkela","lat":"-1.5167","lon":"36.85"},
{"name":"Kiambu","lat":"-1.1667","lon":"36.8167"},
{"name":"Ramu","lat":"3.9375","lon":"41.2203"},
{"name":"Kilifi","lat":"-3.6333","lon":"39.85"},
{"name":"Malindi","lat":"-3.2236","lon":"40.13"},
{"name":"Vihiga","lat":"0.05","lon":"34.725"},
{"name":"Machakos","lat":"-1.5167","lon":"37.2667"},
{"name":"Ngong","lat":"-1.3667","lon":"36.6333"},
{"name":"Mumias","lat":"0.3333","lon":"34.4833"},
{"name":"Thika","lat":"-1.0396","lon":"37.09"},
{"name":"Nyeri","lat":"-0.4167","lon":"36.95"},
{"name":"Kimilili","lat":"0.7833","lon":"34.7167"},
{"name":"Kakamega","lat":"0.2822","lon":"34.754"},
{"name":"Wajir","lat":"1.75","lon":"40.05"},
{"name":"Nandi Hills","lat":"0.1003","lon":"35.1764"},
{"name":"Sotik","lat":"-0.68","lon":"35.12"},
{"name":"Garissa","lat":"-0.4569","lon":"39.6583"},
{"name":"Kitale","lat":"1.0167","lon":"35"},
{"name":"Wundanyi","lat":"-3.3983","lon":"38.3603"},
{"name":"El Wak","lat":"2.8028","lon":"40.9275"},
{"name":"Wote","lat":"-1.7833","lon":"37.6333"},
{"name":"Bungoma","lat":"0.5667","lon":"34.5667"},
{"name":"Isiolo","lat":"0.35","lon":"37.5833"},
{"name":"Iten","lat":"0.6731","lon":"35.5083"},
{"name":"Embu","lat":"-0.5389","lon":"37.4583"},
{"name":"Kisii","lat":"-0.6833","lon":"34.7667"},
{"name":"Homa Bay","lat":"-0.5167","lon":"34.45"},
{"name":"Rumuruti","lat":"0.26","lon":"36.5363"},
{"name":"Busia","lat":"0.4633","lon":"34.1053"},
{"name":"Mandera","lat":"3.9167","lon":"41.8333"},
{"name":"Kericho","lat":"-0.3692","lon":"35.2839"},
{"name":"Kitui","lat":"-1.3667","lon":"38.0167"},
{"name":"Lamu","lat":"-2.2694","lon":"40.9022"},
{"name":"Kajiado","lat":"-1.85","lon":"36.7833"},
{"name":"Maralal","lat":"1.1","lon":"36.7"},
{"name":"Kapsabet","lat":"0.3333","lon":"35.1667"},
{"name":"Marsabit","lat":"2.3333","lon":"37.9833"},
{"name":"Lodwar","lat":"3.1167","lon":"35.6"},
{"name":"Kerugoya","lat":"-0.5","lon":"37.2833"},
{"name":"Kwale","lat":"-4.1744","lon":"39.4603"},
{"name":"Hola","lat":"-1.5","lon":"40.0333"},
{"name":"Mwatate","lat":"-3.5047","lon":"38.3778"},
{"name":"Kabarnet","lat":"0.494","lon":"35.744"},
{"name":"Migori","lat":"-1.0634","lon":"34.4731"},
{"name":"Nyamira","lat":"-0.5633","lon":"34.9358"},
{"name":"Sotik Post","lat":"-0.7813","lon":"35.3416"},
{"name":"Murang'a","lat":"-0.7167","lon":"37.15"}
,
{"name":"Siaya","lat":"0.0667","lon":"34.2833"},
{"name":"Kapenguria","lat":"1.2333","lon":"35.1167"},
{"name":"Narok","lat":"-1.0833","lon":"35.8667"},
{"name":"Ol Kalou","lat":"-0.273","lon":"36.378"}
]
